[
    {
        "lon": -84.06,
        "lat": 9.96,
        "sqmt": 113,
        "city": "Moravia",
        "address": "Mall Lincoln Plaza San Vicente, Local # 232",
        "color": "Blue"
    },
    {
        "lon": 4.38,
        "lat": 50.84,
        "sqmt": 88,
        "city": "Brussels",
        "address": "Rue de la Loi, Rond-point Robert Schuman",
        "color": "Blue"
    },
    {
        "lon": 4.35,
        "lat": 50.83,
        "sqmt": 133,
        "city": "Brussels",
        "address": "Guldenvlieslaan",
        "color": "Blue"
    },
    {
        "lon": 4.33,
        "lat": 50.83,
        "sqmt": 65,
        "city": "Brussels",
        "address": "Frankrijkstraat & Fonsnylaan",
        "color": "Blue"
    },
    {
        "lon": 4.41,
        "lat": 50.84,
        "sqmt": 88,
        "city": "Brussels",
        "address": "Montgomery, Woluwe-Saint-Pierre",
        "color": "Blue"
    },
    {
        "lon": 4.4,
        "lat": 51.22,
        "sqmt": 125,
        "city": "Antwerp",
        "address": "Groenplaats 13",
        "color": "Blue"
    },
    {
        "lon": 4.36,
        "lat": 50.84,
        "sqmt": 171,
        "city": "Brussels",
        "address": "Grand Place de Bruxelles 4, Couloir city 2",
        "color": "Blue"
    },
    {
        "lon": 4.36,
        "lat": 50.85,
        "sqmt": 141,
        "city": "Brussels",
        "address": "Boulevard du Jardin Botanique, Antwerp Centraal Railway Station",
        "color": "Blue"
    },
    {
        "lon": 4.42,
        "lat": 51.22,
        "sqmt": 71,
        "city": "Antwerp",
        "address": "Koningin Astridplein 27",
        "color": "Blue"
    },
    {
        "lon": 3.19,
        "lat": 51.27,
        "sqmt": 160,
        "city": "Brugges",
        "address": "Stationsplein 5, Brussels Centraal",
        "color": "Blue"
    },
    {
        "lon": 4.36,
        "lat": 50.85,
        "sqmt": 129,
        "city": "Brussels",
        "address": "Eurpoakruispunt",
        "color": "Blue"
    },
    {
        "lon": 3.72,
        "lat": 51.04,
        "sqmt": 165,
        "city": "Gent",
        "address": "Koningin Maria Hendrikaplein 1",
        "color": "Blue"
    },
    {
        "lon": 3.72,
        "lat": 51.05,
        "sqmt": 172,
        "city": "Gent",
        "address": "Korenmarkt 4",
        "color": "Blue"
    },
    {
        "lon": 4.71,
        "lat": 50.88,
        "sqmt": 185,
        "city": "Leuven",
        "address": "Martelarenplein 16",
        "color": "Blue"
    },
    {
        "lon": 4.36,
        "lat": 50.86,
        "sqmt": 55,
        "city": "Schaerbeek",
        "address": "Vooruitgangstraat 76, Brussels Airport - BRU",
        "color": "Blue"
    },
    {
        "lon": 4.49,
        "lat": 50.9,
        "sqmt": 199,
        "city": "Zaventem",
        "address": "Departure Hall, Brussels Airport - BRU",
        "color": "Blue"
    },
    {
        "lon": 4.48,
        "lat": 50.87,
        "sqmt": 102,
        "city": "Zaventem",
        "address": "Concourse A, Brussels Airport - BRU",
        "color": "Blue"
    },
    {
        "lon": 4.48,
        "lat": 50.9,
        "sqmt": 73,
        "city": "Zaventem",
        "address": "Concourse B",
        "color": "Blue"
    },
    {
        "lon": 5.57,
        "lat": 50.63,
        "sqmt": 95,
        "city": "Liege",
        "address": "2 Place de Guillemins",
        "color": "Blue"
    },
    {
        "lon": 4.86,
        "lat": 50.47,
        "sqmt": 119,
        "city": "Namur",
        "address": "Place de la Station",
        "color": "Blue"
    },
    {
        "lon": 25.62,
        "lat": 42.42,
        "sqmt": 125,
        "city": "Burgas",
        "address": "Stefan Stambolov Blvd & Transportna Str",
        "color": "Blue"
    },
    {
        "lon": 23.43,
        "lat": 42.64,
        "sqmt": 63,
        "city": "Sofia",
        "address": "Tsarigradsko Blvd",
        "color": "Blue"
    },
    {
        "lon": 23.32,
        "lat": 42.66,
        "sqmt": 123,
        "city": "Sofia",
        "address": "100 Cherni Vrah Blvd",
        "color": "Blue"
    },
    {
        "lon": 23.32,
        "lat": 42.7,
        "sqmt": 55,
        "city": "Sofia",
        "address": "Vas Lefski Bulvd and Gurko street",
        "color": "Blue"
    },
    {
        "lon": 23.32,
        "lat": 42.69,
        "sqmt": 93,
        "city": "Sofia",
        "address": "V Lefski Blvd & Frityof Nansen",
        "color": "Blue"
    },
    {
        "lon": 8.05,
        "lat": 47.39,
        "sqmt": 77,
        "city": "Aarau",
        "address": "Kasinogarten",
        "color": "Blue"
    },
    {
        "lon": 8.31,
        "lat": 47.48,
        "sqmt": 128,
        "city": "Baden",
        "address": "Bahnhofplatz",
        "color": "Blue"
    },
    {
        "lon": 8.37,
        "lat": 47.42,
        "sqmt": 82,
        "city": "Spreitenbach",
        "address": "Shopping Center Shoppi Tivoli",
        "color": "Blue"
    },
    {
        "lon": 7.44,
        "lat": 46.95,
        "sqmt": 117,
        "city": "Bern",
        "address": "Laupenstrasse 1",
        "color": "Blue"
    },
    {
        "lon": 7.44,
        "lat": 46.95,
        "sqmt": 184,
        "city": "Bern",
        "address": "Waaghausgasse 18",
        "color": "Blue"
    },
    {
        "lon": 7.44,
        "lat": 46.95,
        "sqmt": 78,
        "city": "Bern",
        "address": "Bahnhofplatz 10",
        "color": "Blue"
    },
    {
        "lon": 7.37,
        "lat": 46.95,
        "sqmt": 52,
        "city": "Bern",
        "address": "Gilberte-de-Courgenay-Platz 4",
        "color": "Blue"
    },
    {
        "lon": 7.25,
        "lat": 47.14,
        "sqmt": 99,
        "city": "Biel",
        "address": "Nidaugasse 45",
        "color": "Blue"
    },
    {
        "lon": 7.59,
        "lat": 47.55,
        "sqmt": 188,
        "city": "Basel",
        "address": "Theatergaesslein 17",
        "color": "Blue"
    },
    {
        "lon": 7.6,
        "lat": 47.58,
        "sqmt": 78,
        "city": "Basel",
        "address": "Hochbergerstrasse 70",
        "color": "Blue"
    },
    {
        "lon": 7.59,
        "lat": 47.56,
        "sqmt": 162,
        "city": "Basel",
        "address": "Rebgasse 2",
        "color": "Blue"
    },
    {
        "lon": 7.59,
        "lat": 47.55,
        "sqmt": 181,
        "city": "Basel",
        "address": "Centralbahnplatz 14",
        "color": "Blue"
    },
    {
        "lon": 7.59,
        "lat": 47.56,
        "sqmt": 136,
        "city": "Basel",
        "address": "Freie Strasse 89",
        "color": "Blue"
    },
    {
        "lon": 7.16,
        "lat": 46.81,
        "sqmt": 136,
        "city": "Fribourg",
        "address": "Rue de Romont 3",
        "color": "Blue"
    },
    {
        "lon": 7.15,
        "lat": 46.8,
        "sqmt": 198,
        "city": "Fribourg",
        "address": "Place de la Gare 1",
        "color": "Blue"
    },
    {
        "lon": 6.14,
        "lat": 46.21,
        "sqmt": 128,
        "city": "Geneve",
        "address": "Place de Cornavin 7",
        "color": "Blue"
    },
    {
        "lon": 6.15,
        "lat": 46.2,
        "sqmt": 168,
        "city": "Geneve",
        "address": "Cours de Rive 11",
        "color": "Blue"
    },
    {
        "lon": 6.15,
        "lat": 46.21,
        "sqmt": 94,
        "city": "Geneve",
        "address": "Quai des Bergues 23",
        "color": "Blue"
    },
    {
        "lon": 6.14,
        "lat": 46.21,
        "sqmt": 142,
        "city": "Geneve",
        "address": "Rue de Cornavin 2",
        "color": "Blue"
    },
    {
        "lon": 6.14,
        "lat": 46.2,
        "sqmt": 176,
        "city": "Geneve",
        "address": "Rue du Conseil General 11",
        "color": "Blue"
    },
    {
        "lon": 6.14,
        "lat": 46.21,
        "sqmt": 158,
        "city": "Geneve",
        "address": "Rue du Mont-Blanc 26",
        "color": "Blue"
    },
    {
        "lon": 6.15,
        "lat": 46.2,
        "sqmt": 151,
        "city": "Geneve",
        "address": "Place de Longemalle 14",
        "color": "Blue"
    },
    {
        "lon": 6.11,
        "lat": 46.23,
        "sqmt": 54,
        "city": "Le Grand Saconnex",
        "address": "Route de Laeroport 21",
        "color": "Blue"
    },
    {
        "lon": 8.31,
        "lat": 47.05,
        "sqmt": 124,
        "city": "Luzern",
        "address": "Pilatusstrasse 1",
        "color": "Blue"
    },
    {
        "lon": 8.31,
        "lat": 47.05,
        "sqmt": 107,
        "city": "Luzern",
        "address": "Rathausquai 9",
        "color": "Blue"
    },
    {
        "lon": 8.82,
        "lat": 47.23,
        "sqmt": 181,
        "city": "Rapperswil",
        "address": "Schmiedgasse 30",
        "color": "Blue"
    },
    {
        "lon": 9.37,
        "lat": 47.42,
        "sqmt": 189,
        "city": "St. Gallen",
        "address": "Bahnhofplatz 2",
        "color": "Blue"
    },
    {
        "lon": 9.3,
        "lat": 47.41,
        "sqmt": 83,
        "city": "St. Gallen",
        "address": "Zurcherstrasse 464",
        "color": "Blue"
    },
    {
        "lon": 9.37,
        "lat": 47.42,
        "sqmt": 166,
        "city": "St. Gallen",
        "address": "Bahnhofplatz 2",
        "color": "Blue"
    },
    {
        "lon": 9.38,
        "lat": 47.43,
        "sqmt": 77,
        "city": "St. Gallen",
        "address": "Marktgasse 9",
        "color": "Blue"
    },
    {
        "lon": 6.63,
        "lat": 46.52,
        "sqmt": 100,
        "city": "Lausanne",
        "address": "Rue St. Laurent 19",
        "color": "Blue"
    },
    {
        "lon": 6.63,
        "lat": 46.52,
        "sqmt": 53,
        "city": "Lausanne",
        "address": "Place de la gare 2",
        "color": "Blue"
    },
    {
        "lon": 6.63,
        "lat": 46.52,
        "sqmt": 89,
        "city": "Lausanne",
        "address": "Place de St. Francois 2",
        "color": "Blue"
    },
    {
        "lon": 6.84,
        "lat": 46.46,
        "sqmt": 193,
        "city": "Vevey",
        "address": "Place de la Gare 4",
        "color": "Blue"
    },
    {
        "lon": 8.52,
        "lat": 47.17,
        "sqmt": 64,
        "city": "Zug",
        "address": "Bahnhofplatz",
        "color": "Blue"
    },
    {
        "lon": 8.52,
        "lat": 47.17,
        "sqmt": 92,
        "city": "Zug",
        "address": "Baarerstrasse 22",
        "color": "Blue"
    },
    {
        "lon": 8.56,
        "lat": 47.3,
        "sqmt": 174,
        "city": "Thalwil",
        "address": "Gotthardstrasse 40",
        "color": "Blue"
    },
    {
        "lon": 8.59,
        "lat": 47.41,
        "sqmt": 62,
        "city": "Wallisellen",
        "address": "Einkaufszentrum Glatt",
        "color": "Blue"
    },
    {
        "lon": 8.72,
        "lat": 47.5,
        "sqmt": 197,
        "city": "Winterthur",
        "address": "Bahnhof/Bahnhofplatz Winterthur",
        "color": "Blue"
    },
    {
        "lon": 8.73,
        "lat": 47.5,
        "sqmt": 151,
        "city": "Winterthur",
        "address": "Marktgasse 61",
        "color": "Blue"
    },
    {
        "lon": 8.54,
        "lat": 47.38,
        "sqmt": 53,
        "city": "Zurich",
        "address": "Limmatstrasse 5",
        "color": "Blue"
    },
    {
        "lon": 8.54,
        "lat": 47.38,
        "sqmt": 107,
        "city": "Zurich",
        "address": "Limmatquai 144",
        "color": "Blue"
    },
    {
        "lon": 8.55,
        "lat": 47.37,
        "sqmt": 118,
        "city": "Zurich",
        "address": "Theaterstrasse 8",
        "color": "Blue"
    },
    {
        "lon": 8.54,
        "lat": 47.37,
        "sqmt": 186,
        "city": "Zurich",
        "address": "Bleicherweg 30",
        "color": "Blue"
    },
    {
        "lon": 8.54,
        "lat": 47.37,
        "sqmt": 56,
        "city": "Zurich",
        "address": "Rennweg 48, Halle Landesmuseum",
        "color": "Blue"
    },
    {
        "lon": 8.54,
        "lat": 47.38,
        "sqmt": 128,
        "city": "Zurich",
        "address": "Hauptbahnhof",
        "color": "Blue"
    },
    {
        "lon": 8.54,
        "lat": 47.38,
        "sqmt": 184,
        "city": "Zurich",
        "address": "Bahnhofplatz 6, Am Marktplatz",
        "color": "Blue"
    },
    {
        "lon": 8.54,
        "lat": 47.41,
        "sqmt": 122,
        "city": "Zurich",
        "address": "Schulstrasse 44",
        "color": "Blue"
    },
    {
        "lon": 8.52,
        "lat": 47.36,
        "sqmt": 63,
        "city": "Zurich",
        "address": "Kalanderplatz 1",
        "color": "Blue"
    },
    {
        "lon": 8.53,
        "lat": 47.36,
        "sqmt": 110,
        "city": "Zurich",
        "address": "Seestrasse 19",
        "color": "Blue"
    },
    {
        "lon": 8.53,
        "lat": 47.38,
        "sqmt": 52,
        "city": "Zurich",
        "address": "Europaallee 7",
        "color": "Blue"
    },
    {
        "lon": 8.54,
        "lat": 47.37,
        "sqmt": 176,
        "city": "Zurich",
        "address": "Fusslistrasse 4, Level Check-in 3",
        "color": "Blue"
    },
    {
        "lon": 8.56,
        "lat": 47.45,
        "sqmt": 60,
        "city": "Zurich",
        "address": "Airport Center",
        "color": "Blue"
    },
    {
        "lon": 8.54,
        "lat": 47.41,
        "sqmt": 118,
        "city": "Zurich",
        "address": "Max Bill-Platz 15",
        "color": "Blue"
    },
    {
        "lon": 8.56,
        "lat": 47.45,
        "sqmt": 58,
        "city": "Zurich",
        "address": "Zurich Airport A Pier 2",
        "color": "Blue"
    },
    {
        "lon": 8.53,
        "lat": 47.37,
        "sqmt": 78,
        "city": "Zurich",
        "address": "Badenerstrasse 21, Level Check-in 1",
        "color": "Blue"
    },
    {
        "lon": 8.56,
        "lat": 47.45,
        "sqmt": 161,
        "city": "Zurich",
        "address": "Airside Center Landside",
        "color": "Blue"
    },
    {
        "lon": 8.54,
        "lat": 47.37,
        "sqmt": 180,
        "city": "Zurich",
        "address": "Limmatquai 4",
        "color": "Blue"
    },
    {
        "lon": 8.55,
        "lat": 47.46,
        "sqmt": 173,
        "city": "Zurich",
        "address": "Zurich Airport Pier E, Airside Non-Schengen",
        "color": "Blue"
    },
    {
        "lon": 8.54,
        "lat": 47.39,
        "sqmt": 50,
        "city": "Zurich",
        "address": "Hotzestrasse 65",
        "color": "Blue"
    },
    {
        "lon": 8.55,
        "lat": 47.36,
        "sqmt": 72,
        "city": "Zurich",
        "address": "Kreuzplatz 22",
        "color": "Blue"
    },
    {
        "lon": 16.32,
        "lat": 48.11,
        "sqmt": 197,
        "city": "Vosendorf",
        "address": "SCS-Strasse",
        "color": "Blue"
    },
    {
        "lon": 13.01,
        "lat": 47.82,
        "sqmt": 193,
        "city": "Salzburg",
        "address": "Europastrasse 1",
        "color": "Blue"
    },
    {
        "lon": 13.04,
        "lat": 47.8,
        "sqmt": 124,
        "city": "Salzburg",
        "address": "Hagenauerplatz 1",
        "color": "Blue"
    },
    {
        "lon": 13.05,
        "lat": 47.81,
        "sqmt": 143,
        "city": "Salzburg",
        "address": "Sudtiroler Platz 13",
        "color": "Blue"
    },
    {
        "lon": 16.56,
        "lat": 48.13,
        "sqmt": 118,
        "city": "Schwechat",
        "address": "Wien-Flughafen",
        "color": "Blue"
    },
    {
        "lon": 16.35,
        "lat": 48.2,
        "sqmt": 80,
        "city": "Wien",
        "address": "Neubaugasse 4",
        "color": "Blue"
    },
    {
        "lon": 16.39,
        "lat": 48.24,
        "sqmt": 153,
        "city": "Wien",
        "address": "Handelskai 94-96",
        "color": "Blue"
    },
    {
        "lon": 16.38,
        "lat": 48.18,
        "sqmt": 177,
        "city": "Wien",
        "address": "Bahnhof city Wien Hauptbahnhof",
        "color": "Blue"
    },
    {
        "lon": 16.37,
        "lat": 48.21,
        "sqmt": 142,
        "city": "Wien",
        "address": "Braunerstrasse 2",
        "color": "Blue"
    },
    {
        "lon": 16.37,
        "lat": 48.21,
        "sqmt": 102,
        "city": "Wien",
        "address": "Reitschulgasse 4",
        "color": "Blue"
    },
    {
        "lon": 16.35,
        "lat": 48.22,
        "sqmt": 184,
        "city": "Wien",
        "address": "Waehringer Guertel 18-20",
        "color": "Blue"
    },
    {
        "lon": 16.36,
        "lat": 48.2,
        "sqmt": 157,
        "city": "Wien",
        "address": "Mariahilfer Strasse 23-25",
        "color": "Blue"
    },
    {
        "lon": 16.38,
        "lat": 48.21,
        "sqmt": 80,
        "city": "Wien",
        "address": "Rotenturmstrasse 22",
        "color": "Blue"
    },
    {
        "lon": 16.39,
        "lat": 48.21,
        "sqmt": 159,
        "city": "Wien",
        "address": "Invalidenstrasse 11",
        "color": "Blue"
    },
    {
        "lon": 16.43,
        "lat": 48.24,
        "sqmt": 153,
        "city": "Wien",
        "address": "Wagramer Strasse 81",
        "color": "Blue"
    },
    {
        "lon": 16.34,
        "lat": 48.2,
        "sqmt": 110,
        "city": "Wien",
        "address": "Bahnhof city Wien West",
        "color": "Blue"
    },
    {
        "lon": 16.36,
        "lat": 48.21,
        "sqmt": 88,
        "city": "Wien",
        "address": "Schottengasse 9",
        "color": "Blue"
    },
    {
        "lon": 16.37,
        "lat": 48.2,
        "sqmt": 106,
        "city": "Wien",
        "address": "Karlsplatz Hauptpassage",
        "color": "Blue"
    },
    {
        "lon": 1.53,
        "lat": 42.51,
        "sqmt": 181,
        "city": "Andorra la Vella",
        "address": "Av. Meritxell, 96",
        "color": "Blue"
    }
]